[
  {
    "id": 1,
    "name": "Sivas",
    "lat": 39.750545,
    "lng": 37.0150217
  },
  {
    "id": 2,
    "name": "Elazig",
    "lat": 38.674816,
    "lng": 39.22251500000001
  },
  {
    "id": 3,
    "name": "Konya",
    "lat": 37.8746429,
    "lng": 32.4931554
  },
  {
    "id": 4,
    "name": "Ankara",
    "lat": 39.9333635,
  "lng": 32.8597419
  },
  {
    "id": 5,
    "name": "Bolu",
    "lat": 40.732541,
    "lng": 31.608209
  },
  {
    "id": 6,
    "name": "Izmir",
    "lat": 38.423734,
    "lng": 27.142826
  },
  {
    "id": 7,
    "name": "Mugla",
    "lat": 37.215374,
    "lng": 28.363394
  },
  {
    "id": 8,
    "name": "Adana",
    "lat": 36.9914194,
    "lng": 35.3308285
  },
  {
    "id": 9,
    "name": "Duzce",
    "lat": 40.8770531,
    "lng": 31.3192713
  },
  {
    "id": 10,
    "name": "Kahraman Maras",
    "lat": 37.5752755,
    "lng": 36.9228223
  }
] 
 
